"Healthcare Facility Name","Facility Code","Level","BEmONC / CEmONC","NCU / NICU","TA (Council)","District","Region","Country","Latitude","Longitude","Contact Name","Phone Number","Phone Number 2","Phone Number 3"
"Wasambo Community Hospital","MOH12345","Level 2 (Health Centers and non-CEmONC Hospitals)","BEmONC","Yes","TA Wasambo","Karonga","Northern","Malawi","-14.9849407","34.9495445","Test Facility Incharge","987654421","987363636",""
"Chamama Community Hospital","DE030228","Level 2 (Health Centers and non-CEmONC Hospitals)","BEmONC","No","TA Demo","Rumphi","Northern","Malawi","-11.9356443","33.6059174","Alinafe Magaso","881234567","991234567","881112223"
"Chiendausiku Health Centre","3606","Level 2 (Health Centers and non-CEmONC Hospitals)","Non-EmONC","No","TA Nsamalatest","Balaka","Southern","Malawi","-14.9849856","34.9494911","Wilson Mathyolatest","994276566","",""
"Chendausiku Health Centre","13601","Level 2 (Health Centers and non-CEmONC Hospitals)","BEmONC","No","TA Msamalatest","Balaka","Southern","Malawi","-14.9845217","34.9500171","Daliso Makhaka","997822488","",""
"Khwisa Health Centre","3611","Level 2 (Health Centers and non-CEmONC Hospitals)","BEmONC","No","TA Nsamalatest","Balaka","Southern","Malawi","-14.9845698","34.9499973","Maggie Phiri","881243567","",""
"Kalembo Health Centre","DE030228","Level 2 (Health Centers and non-CEmONC Hospitals)","Non-EmONC","No","TA Kalembo Test","Balaka","Southern","Malawi","-14.8622192","35.1773079","Davie Mandala","885484812","990190294",""
"Khonjeni Health Centre","3109","Level 2 (Health Centers and non-CEmONC Hospitals)","BEmONC","No","TA Kapichi","Thyolo","Southern","Malawi","-16.0968059","35.2715062","Chimwemwe Naluso","888592926","993136724",""
"Chiyendausiku Health Centre","DE030228","Level 2 (Health Centers and non-CEmONC Hospitals)","Non-EmONC","No","TA Nsamala Test","Balaka","Southern","Malawi","-15.1722244","35.0647973","Greenwell Simon","999174422","888554049","999111333"
"Chilengo Dispensary","CH310205","Level 1 (Clinics, Dispensaries, Health Posts)","BEmONC","No","TA Mphuka","Thyolo","Southern","Malawi","-16.1358928","35.015817","John Mngwira","885288059","",""