"Healthcare Facility Name","Facility Code","Level","BEmONC / CEmONC","NCU / NICU","TA (Council)","District","Region","Country","Latitude","Longitude","Contact Name","Phone Number","Phone Number 2","Phone Number 3"
"Bwengu Health Centre","MZ160124","Level 2 (Health Centers and non-CEmONC Hospitals)","Non-EmONC","No","TA Jalavikuba","Mzimba North","Northern","Malawi","-11.0638183","33.9167067","Chawezi Mtonga","990450393","",""
"Choma Health Centre","MZ160309","Level 2 (Health Centers and non-CEmONC Hospitals)","Non-EmONC","No","TA Mtwalo","Mzimba North","Northern","Malawi","-11.3129095","33.9911642","Loveness Pokerani","899543534","",""
"Ekwaiweni Dispensary","MZ160382","Level 1 (Clinics, Dispensaries, Health Posts)","Non-EmONC","No","TA Mtwalo","Mzimba North","Northern","Malawi","-11.4228724","33.8976112","Alexander Kamanga","881979037","",""
"Ekwendeni Mission Hospital","MZ160383","Level 3 (CEmONC Facilities)","CEmONC","Yes","TA Mtwalo","Mzimba North","Northern","Malawi","-11.37163","33.8832285","Grant Chirwa","997975029","",""
"Emsizini Health Centre","MZ160390","Level 2 (Health Centers and non-CEmONC Hospitals)","Non-EmONC","No","TA Mtwalo","Mzimba North","Northern","Malawi","-11.4443234","33.8248892","Handra Nyirenda","884644746","",""
"Engucwini Health Centre","MZ160392","Level 2 (Health Centers and non-CEmONC Hospitals)","BEmONC","No","TA Mtwalo","Mzimba North","Northern","Malawi","-11.1980068","33.8228873","Stanely Nyirenda","990621835","",""
"Enukweni Health Centre","MZ160393","Level 2 (Health Centers and non-CEmONC Hospitals)","BEmONC","No","TA Mtwalo","Mzimba North","Northern","Malawi","-11.1800767","33.8858567","Bester Zimba","884088412","992518686",""
"Enukweni Mission Health Centre","MZ161535","Level 2 (Health Centers and non-CEmONC Hospitals)","BEmONC","No","TA Mtwalo","Mzimba North","Northern","Malawi","-11.180885","33.8843891","Telling Gondwe","996655609","",""
"Kabwafu Health Centre","MZ160481","Level 2 (Health Centers and non-CEmONC Hospitals)","Non-EmONC","No","TA Mpherembe","Mzimba North","Northern","Malawi","-11.3088518","33.5256672","Winnie Njolomole","992784001","",""
"Kafukule Health Centre","MZ160493","Level 2 (Health Centers and non-CEmONC Hospitals)","BEmONC","No","TA Mtwalo","Mzimba North","Northern","Malawi","-11.4575328","33.6340624","Egson Kitalo","884247914","",""
"Kamwe Health Centre","MZ160530","Level 2 (Health Centers and non-CEmONC Hospitals)","Non-EmONC","No","TA Mtwalo","Mzimba North","Northern","Malawi","-11.10307","33.7890024","Enipher Shaba","990556777","",""
"Kaweche Health Centre","MZ160613","Level 2 (Health Centers and non-CEmONC Hospitals)","BEmONC","No","TA Mtwalo","Mzimba North","Northern","Malawi","-11.3405283","33.8662528","Marshal Mwenefumbo","999435939","",""
"Khuyukuyu Health Centre","MZ161205","Level 2 (Health Centers and non-CEmONC Hospitals)","CEmONC","No","TA Mtwalo","Mzimba North","Northern","Malawi","-11.2221883","33.9143203","Khumbo Nyirenda","993514853","",""
"Luvwere Dispensary","MZ160736","Level 1 (Clinics, Dispensaries, Health Posts)","Non-EmONC","No","TA Mtwalo","Mzimba North","Northern","Malawi","-11.3889984","33.6729325","Rodwine Mwenelubembe","994177273","",""
"Luzi Health Centre","MZ160743","Level 2 (Health Centers and non-CEmONC Hospitals)","BEmONC","No","TA Jalavikuba","Mzimba North","Northern","Malawi","-10.9967219","33.9560579","Chifundo Kaira","997990813","",""
"Madise Health Centre","MZ161919","Level 2 (Health Centers and non-CEmONC Hospitals)","BEmONC","No","TA Mtwalo","Mzimba North","Northern","Malawi","-11.2634652","33.7798635","Wilson Nyirenda","995145694","",""
"Malidade Health Centre","MZ160812","Level 2 (Health Centers and non-CEmONC Hospitals)","Non-EmONC","No","TA Mpherembe","Mzimba North","Northern","Malawi","-11.2292025","33.4998759","Wighane Mwangonde","984470891","",""
"Manolo Health Centre","MZ160833","Level 2 (Health Centers and non-CEmONC Hospitals)","Non-EmONC","No","TA Mpherembe","Mzimba North","Northern","Malawi","-11.2507717","33.4395522","Blessings Chipasula","993171273","888158535",""
"Matuli Health Centre","MZ160863","Level 2 (Health Centers and non-CEmONC Hospitals)","BEmONC","No","TA Mtwalo","Mzimba North","Northern","Malawi","-11.4851248","33.896117","Eliza Mmeto","881082110","",""
"Moyale Dispensary","MZ160986","Level 1 (Clinics, Dispensaries, Health Posts)","Non-EmONC","Yes","TA Kabunduli","Mzimba North","Northern","Malawi","-11.4594467","34.0377219","Dr Pemba Mwenda","882037828","",""
"Mpherembe Health Centre","MZ161004","Level 2 (Health Centers and non-CEmONC Hospitals)","BEmONC","No","TA Mpherembe","Mzimba North","Northern","Malawi","-11.2881777","33.6147166","Tionge Munyenyembe","988473742","",""
"Mtwalo Health Centre","MZ161040","Level 2 (Health Centers and non-CEmONC Hospitals)","Non-EmONC","Yes","TA Mtwalo","Mzimba North","Northern","Malawi","-11.3967064","33.7459868","Benson Chavinda","995048958","884134511",""
"Mzuzu Central Hospital","MZ161099","Level 4 (Central Hospitals)","CEmONC","Yes","TA Mtwalo","Mzimba North","Northern","Malawi","-11.4284917","33.99549","Monalisa Tembo","881446580","",""
"Mzuzu Urban Community Hospital","MZ161100","Level 2 (Health Centers and non-CEmONC Hospitals)","BEmONC","Yes","TA Chindi","Mzimba North","Northern","Malawi","-11.4614033","34.0148959","Lyod Mgode","881600759","",""
"Njuyu Health Centre","MZ161187","Level 2 (Health Centers and non-CEmONC Hospitals)","BEmONC","Yes","TA Kampingo Sibande","Mzimba North","Northern","Malawi","-11.4624718","33.6320891","Wisdom Kondowe","882965598","",""
"Nkhorongo Health Centre","MZ161200","Level 2 (Health Centers and non-CEmONC Hospitals)","Non-EmONC","No","TA Mtwalo","Mzimba North","Northern","Malawi","-11.39034","33.9850733","Tobias Kamanga","999689217","",""
"Padre Pio Health Centre","MZ161251","Level 2 (Health Centers and non-CEmONC Hospitals)","Non-EmONC","No","TA Kampingo Sibande","Mzimba North","Northern","Malawi","-11.4998418","33.9430609","Trizza Raphael","993017727","","983345306"
"St John's Mission Hospital","MZ161366","Level 2 (Health Centers and non-CEmONC Hospitals)","CEmONC","Yes","TA Matuli","Mzimba North","Northern","Malawi","-11.4521506","34.0275346","Charles Nyasulu","993559485","",""
"Thunduwike Health Centre","MZ161425","Level 2 (Health Centers and non-CEmONC Hospitals)","Non-EmONC","No","TA Mpherembe","Mzimba North","Northern","Malawi","-11.1799835","33.578415","Alfred Nyirenda","990692428","",""
"Zolozolo Health Centre","MZ161819","Level 2 (Health Centers and non-CEmONC Hospitals)","Non-EmONC","No","TA Mtwalo","Mzimba North","Northern","Malawi","-11.4355302","34.0242167","Ernest Banda","884632978","",""
"Bulala Health Centre","511","Level 2 (Health Centers and non-CEmONC Hospitals)","BEmONC","No","TA Chindi","Mzimba South","Northern","Malawi","-11.6782116","33.4481731","Charels Nanganitani","888342571","884577260","888352751"
"Chikangawa Health Centre","503","Level 2 (Health Centers and non-CEmONC Hospitals)","BEmONC","No","TA Kampingo Sibande","Mzimba South","Northern","Malawi","-11.8443009","33.8020571","Luka Moyo","995124025","884409791",""
"Edingeni Health Centre","505","Level 2 (Health Centers and non-CEmONC Hospitals)","BEmONC","No","TA M'mbelwa","Mzimba South","Northern","Malawi","-12.0410383","33.3126107","Samuel Tsukani","999676997","",""
"Ehehleni Dispensary","506","Level 1 (Clinics, Dispensaries, Health Posts)","Non-EmONC","No","STA Chiputula Nhlane","Mzimba South","Northern","Malawi","-12.2620593","33.5891907","Amina Banda","998479860","991378601","881645961"
"Embangweni Mission Hospital","507","Level 3 (CEmONC Facilities)","CEmONC","Yes","TA Mzukuzuku","Mzimba South","Northern","Malawi","-12.136093","33.4769993","Parfait Kileya","997163249","888576051","999609924"
"Emfeni Health Centre","504","Level 2 (Health Centers and non-CEmONC Hospitals)","BEmONC","No","TA Mabilabo","Mzimba South","Northern","Malawi","-12.5938587","33.6096819","Deus Kamwani","993274603","","882925338"
"Endindeni Health Centre","508","Level 2 (Health Centers and non-CEmONC Hospitals)","BEmONC","No","TA Chindi","Mzimba South","Northern","Malawi","-11.7582327","33.5563518","Mercy Mwambero","995195911","880572346","881868684"
"Engalaweni Health Centre","MZ16733","Level 3 (CEmONC Facilities)","BEmONC","Yes","TA M'mbelwa","Mzimba South","Northern","Malawi","-11.9084729","33.3657817","Engalaweni","993735315","",""
"Euthini Rural Hospital","502","Level 2 (Health Centers and non-CEmONC Hospitals)","BEmONC","No","TA Chindi","Mzimba South","Northern","Malawi","-11.4583572","33.4195074","Fyness Nthengwe","999453801","882688561","998262165"
"Hora Health Centre","533","Level 2 (Health Centers and non-CEmONC Hospitals)","BEmONC","Yes","TA Mtwalo","Mzimba South","Northern","Malawi","-11.645102","33.65168","Joel Mgutha","987118811","883213201","881232541"
"Jenda Rural Hospital","510","Level 2 (Health Centers and non-CEmONC Hospitals)","BEmONC","No","STA Chiputula Nhlani","Mzimba South","Northern","Malawi","-12.3521908","33.5473827","Simeon Mwale","995505514","881806259",""
"Kabuwa Health Centre","530","Level 2 (Health Centers and non-CEmONC Hospitals)","BEmONC","No","TA Khosolo","Mzimba South","Northern","Malawi","-12.517","34.0740617","Patrick Mchenga","888431025","992793027","999603369"
"Kalikumbi Health Centre","DA0512","Level 2 (Health Centers and non-CEmONC Hospitals)","BEmONC","No","TA M'mbelwa","Mzimba South","Northern","Malawi","-12.2041939","33.33381","Annie Chavula","888550326","999420540","991512676"
"Kamteteka Health Centre","513","Level 2 (Health Centers and non-CEmONC Hospitals)","BEmONC","No","TA M'mbelwa","Mzimba South","Northern","Malawi","-11.8366414","33.3593627","Harold Malikiliki","999495190","994653939","994370019"
"Katete Community Hospital","514","Level 2 (Health Centers and non-CEmONC Hospitals)","BEmONC","No","STA Levi Jere","Mzimba South","Northern","Malawi","-12.3458117","33.614365","Emmanuel Chikufenji","888909254","",""
"Lunjika Health Centre","516","Level 2 (Health Centers and non-CEmONC Hospitals)","BEmONC","No","TA Kampingo Sibande","Mzimba South","Northern","Malawi","-11.7145967","33.685705","Blessings Philip Nyondo","888893220","991997908","888024348"
"Luwawa Health Centre","517","Level 2 (Health Centers and non-CEmONC Hospitals)","BEmONC","No","TA Mzikubola","Mzimba South","Northern","Malawi","-12.1132183","33.71951","Mathews Banda","885414604","987808212","999610169"
"Mabiri Health Centre","519","Level 2 (Health Centers and non-CEmONC Hospitals)","BEmONC","Yes","TA Mzukuzuku","Mzimba South","Northern","Malawi","-12.2463617","33.43010991","Patrick Mwafulira","997372812","998652763","995855972"
"Madede Health Centre","520","Level 2 (Health Centers and non-CEmONC Hospitals)","BEmONC","No","TA Chindi","Mzimba South","Northern","Malawi","-11.5390026","33.2946467","Arnold M'modzi","882734864","894592767","888163899"
"Manyamula Health Centre","521","Level 2 (Health Centers and non-CEmONC Hospitals)","BEmONC","No","TA M'belwa","Mzimba South","Northern","Malawi","-11.9401451","33.4394389","Brian Chavula","995963145","884881063","996190425"
"Mbalachanda Health Centre","522","Level 2 (Health Centers and non-CEmONC Hospitals)","BEmONC","Yes","TA Chindi","Mzimba South","Northern","Malawi","-11.3574565","33.371183","Malango Mnthali","998304305","884792408","884380244"
"Mhalaunda Health Centre","523","Level 2 (Health Centers and non-CEmONC Hospitals)","BEmONC","No","TA M'mberwa","Mzimba South","Northern","Malawi","-12.0510931","33.4670935","Monica Banda","881198093","997911841","980230005"
"Msese Health Centre","525","Level 2 (Health Centers and non-CEmONC Hospitals)","BEmONC","No","TA Khosolo","Mzimba South","Northern","Malawi","-12.3593007","33.7400993","Rhomban Nyirenda","888875790","993594939",""
"Mzalangwe Health Centre","527","Level 2 (Health Centers and non-CEmONC Hospitals)","BEmONC","No","TA Chindi","Mzimba South","Northern","Malawi","-11.6121229","33.565096","William Kamwera","888205889","881567688","888534319"
"Ntchawaka Health Post","51820","Level 1 (Clinics, Dispensaries, Health Posts)","Non-EmONC","No","TA Mabilabo","Mzimba South","Northern","Malawi","-12.498725","33.5725883","Limbani Gondwe","996810124","",""
"Raiply Clinic","531","Level 1 (Clinics, Dispensaries, Health Posts)","Non-EmONC","No","TA Kampingo","Mzimba South","Northern","Malawi","-11.9163825","33.7559849","Dr Mercy","887572303","992443336","999123334"
"Vibangalala Dispensary","532","Level 1 (Clinics, Dispensaries, Health Posts)","Non-EmONC","No","TA Mzukuzuku","Mzimba South","Northern","Malawi","-12.234107","33.486444","Wisdom Nyirenda","994801603","884199133",""
"Bolero Rural Hospital","RU140107","Level 2 (Health Centers and non-CEmONC Hospitals)","BEmONC","No","TA Chikulamayembe","Rumphi","Northern","Malawi","-10.9786037","33.7434623","Wisdom Nymbiri","888362869","884707862",""
"Chisimuka Health Centre","RU140271","Level 2 (Health Centers and non-CEmONC Hospitals)","Non-EmONC","No","TA Katumbi","Rumphi","Northern","Malawi","-10.7691133","33.5573567","Adriano Luwe","881837920","994556269",""
"Chitimba Health Centre","RU140292","Level 2 (Health Centers and non-CEmONC Hospitals)","BEmONC","No","STA Chiwiriwiri","Rumphi","Northern","Malawi","-10.5980588","34.1702039","Wanozga Mbale","999115277","884092073","888139504"
"David Gordon Memorial Mission Hospital","RU140702","Level 3 (CEmONC Facilities)","CEmONC","Yes","TA Mwalweni","Rumphi","Northern","Malawi","-10.6036439","34.110894","Dennis Chiumia","993045126","",""
"Jalawe Health Centre","RU140470","Level 2 (Health Centers and non-CEmONC Hospitals)","BEmONC","Yes","TA Njikula","Rumphi","Northern","Malawi","-10.7298567","34.16164","Kennedy Nyirenda","981817060","","881367306"
"Kanyerere Health Centre","RU141692","Level 2 (Health Centers and non-CEmONC Hospitals)","Non-EmONC","No","TA Chikulamayembe","Rumphi","Northern","Malawi","-10.9475386","33.7592024","Kanyerere","992658113","",""
"Katowo Rural Hospital","RU140600","Level 2 (Health Centers and non-CEmONC Hospitals)","BEmONC","No","TA Katumbi","Rumphi","Northern","Malawi","-10.8127146","33.5223755","Atanazio Liphava","994394018","888462152","994596992"
"Lura Health Centre","RU140731","Level 2 (Health Centers and non-CEmONC Hospitals)","BEmONC","No","TA Kachulu","Rumphi","Northern","Malawi","-10.726409","34.0440884","Evan Kusinyala","997209373","","888185253"
"Luwuchi Health Centre","RU140742","Level 3 (CEmONC Facilities)","BEmONC","Yes","STA Chimphamba","Rumphi","Northern","Malawi","-10.68346","34.1933483","Lucia Gondwe","882977596","993899536",""
"Mhuju Rural Hospital","RU140914","Level 2 (Health Centers and non-CEmONC Hospitals)","BEmONC","No","TA Mwahenga","Rumphi","Northern","Malawi","-10.8668828","33.9975547","Innocent Kuzobwe","991167901","885862253",""
"Mlowe Health Centre","RU140972","Level 2 (Health Centers and non-CEmONC Hospitals)","BEmONC","No","TA Mwamlowe","Rumphi","Northern","Malawi","-10.764342","34.1948526","Zainab Zimba","886978647","887471077",""
"Mphompha Health Centre","RU 141007","Level 2 (Health Centers and non-CEmONC Hospitals)","BEmONC","No","TA Mwankhunikira","Rumphi","Northern","Malawi","-11.0065612","34.0732513","Ligting Kahumbe","894581576","",""
"Mzokoto Health Centre","RU141097","Level 2 (Health Centers and non-CEmONC Hospitals)","BEmONC","No","TA Mwankhunikira","Rumphi","Northern","Malawi","-10.9078374","34.0271941","Mzokoto","993368828","993620540",""
"Ng'onga Health Centre","RU141165","Level 2 (Health Centers and non-CEmONC Hospitals)","BEmONC","No","TA Chisovya","Rumphi","Northern","Malawi","-10.9390144","33.9434029","Maganizo Zimba","995387980","","997777513"
"Nthenje Health Centre","RU141229","Level 2 (Health Centers and non-CEmONC Hospitals)","Non-EmONC","No","TA Mwankhunikira","Rumphi","Northern","Malawi","-10.9179004","33.9877635","Goodlack Mgamba","994364289","991645473","884033994"
"Rumphi District Hospital","RU141302","Level 3 (CEmONC Facilities)","CEmONC","Yes","TA Chikulamayembe","Rumphi","Northern","Malawi","-11.020034","33.8541789","Willard Gandali","991118559","",""
"St Patricks Health Centre","RU 141377","Level 2 (Health Centers and non-CEmONC Hospitals)","BEmONC","Yes","TA Chikulamayembe","Rumphi","Northern","Malawi","-11.023718","33.8734972","Lissy Joze","980387496","",""
"Tcharo Health Centre","RU141395","Level 2 (Health Centers and non-CEmONC Hospitals)","BEmONC","No","TA Chapinduka","Rumphi","Northern","Malawi","-10.9622567","34.2229383","Samson Gondwe","991521529","980735733",""
"Zunga Health Centre","RU141514","Level 2 (Health Centers and non-CEmONC Hospitals)","Non-EmONC","No","TA Mwamlowe","Rumphi","Northern","Malawi","-10.8462013","34.2121489","Christopher Kachiwanda","995701697","",""
"Balaka District Hospital","3601","Level 3 (CEmONC Facilities)","CEmONC","Yes","STA Kapalamula","Balaka","Southern","Malawi","-14.9845159","34.9502438","Dr Aisha Katita","880667551","",""
"Chimatiro Health Centre","3626","Level 2 (Health Centers and non-CEmONC Hospitals)","BEmONC","Yes","STA Chimatiro","Balaka","Southern","Malawi","-14.962586","35.0229351","Ronald Kalimacheuka","993116229","",""
"Chiyendausiku Health Centre","3612","Level 2 (Health Centers and non-CEmONC Hospitals)","BEmONC","Yes","TA Nsamala","Balaka","Southern","Malawi","-15.0187537","35.0770396","Precious Khumulike","991422038","",""
"Comfort Community Hospital","3615","Level 2 (Health Centers and non-CEmONC Hospitals)","BEmONC","Yes","TA Nsamala","Balaka","Southern","Malawi","-15.0032023","34.9524845","Gerald Kaitano","882335954","",""
"Dziwe Dispensary","3627","Level 1 (Clinics, Dispensaries, Health Posts)","Non-EmONC","No","TA Mpilisi","Balaka","Southern","Malawi","-15.1022733","35.1405633","Omega Banda","998341743","",""
"Kalembo Health Centre","3603","Level 2 (Health Centers and non-CEmONC Hospitals)","CEmONC","No","TA Kalembo","Balaka","Southern","Malawi","-14.8427462","35.1706622","Mercy Lyton","996211793","888624659",""
"Kankao Health Centre","3604","Level 2 (Health Centers and non-CEmONC Hospitals)","BEmONC","No","TA Chanthunya","Balaka","Southern","Malawi","-15.0545117","34.9222702","Barbara Bhima","995624297","",""
"Khwisa Health Centre","BK171935","Level 2 (Health Centers and non-CEmONC Hospitals)","BEmONC","Yes","TA Matola","Balaka","Southern","Malawi","-14.8962873","34.9469159","Dr Mavuto Bauleni","991105657","887433809",""
"Kwitanda Health Centre","3613","Level 2 (Health Centers and non-CEmONC Hospitals)","Non-EmONC","No","TA Nsamala","Balaka","Southern","Malawi","-15.0649233","35.0930617","Chikumbutso","881997355","",""
"Mbera Health Centre","3605","Level 2 (Health Centers and non-CEmONC Hospitals)","BEmONC","No","STA Mbera","Balaka","Southern","Malawi","-14.9106605","35.0535347","Midred Alabi","885401367","884228383",""
"Mwima Health Centre","3617","Level 2 (Health Centers and non-CEmONC Hospitals)","CEmONC","No","TA Amidu","Balaka","Southern","Malawi","-14.9298313","35.1847951","Davie Mandala","990921739","",""
"Namanolo Dispensary","3611","Level 2 (Health Centers and non-CEmONC Hospitals)","Non-EmONC","No","TA Amidu","Balaka","Southern","Malawi","-15.0006028","35.1902465","Patricia Tembo","884606028","",""
"Nandumbo Health Centre","3616","Level 2 (Health Centers and non-CEmONC Hospitals)","BEmONC","No","TA Kalembo","Balaka","Southern","Malawi","-14.8516627","35.2252371","Emmanuel Chasesa","888149911","999149915",""
"Phalula Health Centre","3606","Level 2 (Health Centers and non-CEmONC Hospitals)","BEmONC","No","TA Phalula","Balaka","Southern","Malawi","-15.2255415","34.8932123","Benadetta Kwakwala","995825531","",""
"Phimbi Health Centre","3607","Level 2 (Health Centers and non-CEmONC Hospitals)","BEmONC","No","TA Phimbi","Balaka","Southern","Malawi","-15.25083","35.107365","Thokozani Kunungu","884447557","995499993",""
"Ulongwe Health Centre","3608","Level 2 (Health Centers and non-CEmONC Hospitals)","CEmONC","No","TA Kalembo","Balaka","Southern","Malawi","-14.8621778","35.1768345","Cecilia Lwesha","882637425","",""
"Utale 1 Health Centre","3609","Level 1 (Clinics, Dispensaries, Health Posts)","BEmONC","Yes","TA Nkaya","Balaka","Southern","Malawi","-15.1775817","35.0641817","Raph Kalirani","991226555","899577094",""
"Utale 2 Health Centre","3610","Level 2 (Health Centers and non-CEmONC Hospitals)","Non-EmONC","No","TA Nkaya","Balaka","Southern","Malawi","-15.1701533","35.0725083","Stephano Mphepo","995443870","",""
"Ameca Health Centre","BT5077","Level 2 (Health Centers and non-CEmONC Hospitals)","Non-EmONC","Yes","TA Machinjiri","Blantyre","Southern","Malawi","-15.7032249","35.0443055","Kelita Mwangalika","888526528","",""
"Bangwe Community Hospital","BT240041","Level 2 (Health Centers and non-CEmONC Hospitals)","BEmONC","No","TA Machinjiri","Blantyre","Southern","Malawi","-15.8238016","35.0804111","Dr Moses Chanza","997471591","",""
"Chabvala Health Centre","BT240136","Level 3 (CEmONC Facilities)","BEmONC","No","TA Kunthembwe","Blantyre","Southern","Malawi","-15.8337283","34.8344417","Jonathan Salamba","888522026","889999151","884522777"
"Chikowa Community Hospital","BT2903","Level 2 (Health Centers and non-CEmONC Hospitals)","BEmONC","No","TA Kunthembwe","Blantyre","Southern","Malawi","-15.6713742","34.8711084","Davie Chithila","888700039","997452014",""
"Chileka Community Hospital","BT24202","Level 2 (Health Centers and non-CEmONC Hospitals)","BEmONC","No","TA Kuntanja","Blantyre","Southern","Malawi","-15.68258","34.9707079","Chisomo Kapiseni","994709957","",""
"Chileka Sda Mission Hospital","BT240204","Level 2 (Health Centers and non-CEmONC Hospitals)","Non-EmONC","No","TA Kuntaja","Blantyre","Southern","Malawi","-15.6598253","34.9289703","Patricia Banda","881249037","993621290","999247404"
"Chilomoni Community Hospital","BT240216","Level 2 (Health Centers and non-CEmONC Hospitals)","BEmONC","No","TA Machinjiri","Blantyre","Southern","Malawi","-15.771478","34.9813533","Stevenmlangiza","993627533","",""
"Chimembe Health Centre","BT240227","Level 2 (Health Centers and non-CEmONC Hospitals)","Non-EmONC","No","TA Kuntaja","Blantyre","Southern","Malawi","-15.777382","34.8853568","Fatsani Menasi","991003590","",""
"Chipande Health Centre","BT241917","Level 2 (Health Centers and non-CEmONC Hospitals)","Non-EmONC","Yes","TA Machinjiiri","Blantyre","Southern","Malawi","-15.6682023","35.0940223","Alice Zinga","886855121","992081739","886855121"
"Chirimba Dispensary","BT240207","Level 1 (Clinics, Dispensaries, Health Posts)","Non-EmONC","No","TA Machinji","Blantyre","Southern","Malawi","-15.7462728","35.0229591","Tifana Kaliwo","888727034","994441903",""
"Dziwe Health Centre","BT2907","Level 2 (Health Centers and non-CEmONC Hospitals)","Non-EmONC","No","TA Kuntaja","Blantyre","Southern","Malawi","-15.5588267","34.87757","Cephas Sabe","881960411","998371102",""
"Gateway Clinic","BT2945","Level 1 (Clinics, Dispensaries, Health Posts)","Non-EmONC","No","TA Kapeni","Blantyre","Southern","Malawi","-15.8047626","35.0180753","Comfort Chikapa","881874457","",""
"Kachere Dispensary","BT241521","Level 1 (Clinics, Dispensaries, Health Posts)","Non-EmONC","No","TA Machinjiri","Blantyre","Southern","Malawi","-15.787959","35.0886644","Mayamiko Donda","884128050","",""
"Kadidi Health Centre","BT240490","Level 2 (Health Centers and non-CEmONC Hospitals)","CEmONC","Yes","TA Kapeni","Blantyre","Southern","Malawi","-15.6199876","35.0074038","Liness Chikasema","893200053","887829082",""
"Khungulu Dispensary","BT241522","Level 1 (Clinics, Dispensaries, Health Posts)","Non-EmONC","No","TA Kuntaja","Blantyre","Southern","Malawi","-15.6448702","34.966967","Magret Nkhoma","990968664","881026956",""
"Lighthouse Health Centre","2978","Level 1 (Clinics, Dispensaries, Health Posts)","Non-EmONC","No","TA Chigaru","Blantyre","Southern","Malawi","-15.4022443","34.9383872","Slivester Menyani","881087293","995151247",""
"Limbe Community Hospital","BT2908","Level 2 (Health Centers and non-CEmONC Hospitals)","BEmONC","Yes","TA Kapeni","Blantyre","Southern","Malawi","-15.8172983","35.0519399","Dorah Mwafuliwa","882707760","999429500",""
"Lirangwe Community Hospital","BT240698","Level 2 (Health Centers and non-CEmONC Hospitals)","Non-EmONC","No","TA Lundu","Blantyre","Southern","Malawi","-15.529637","35.0298834","Ephraim Chinamulungu","881631203","",""
"Lundu Health Centre","BT240723","Level 2 (Health Centers and non-CEmONC Hospitals)","BEmONC","No","TA Lundu","Blantyre","Southern","Malawi","-15.421482","35.0129015","Weston Chitani","999217909","",""
"Madziabango Health Centre","BT2911","Level 2 (Health Centers and non-CEmONC Hospitals)","BEmONC","Yes","TA Somba","Blantyre","Southern","Malawi","-15.9677969","34.9082961","Dyton Maloza","996620702","",""
"Makata Community Hospital","BT24078","Level 2 (Health Centers and non-CEmONC Hospitals)","Non-EmONC","Yes","TA Makata","Blantyre","Southern","Malawi","-15.6274514","35.0778707","Chifundo Mainjeni","994048482","",""
"Makhetha Dispensary","BT240790","Level 1 (Clinics, Dispensaries, Health Posts)","Non-EmONC","No","TA Kapeni","Blantyre","Southern","Malawi","-15.7835363","35.0695595","Abel Mgomezulu","882819953","997577721",""
"Malabada Mission Hospital","BT240799","Level 2 (Health Centers and non-CEmONC Hospitals)","CEmONC","No","TA Kapeni","Blantyre","Southern","Malawi","-15.7678667","35.044745","Wamaka Kyumba","884220055","993410762",""
"Manase Dispensary","BT242135","Level 1 (Clinics, Dispensaries, Health Posts)","Non-EmONC","No","TA Somba","Blantyre","Southern","Malawi","-15.812249","34.9964014","Pililani Banda","888629750","",""
"Mbayani Dispensary","BT2963","Level 1 (Clinics, Dispensaries, Health Posts)","Non-EmONC","No","TA Machinjiri","Blantyre","Southern","Malawi","-15.765466","35.0045733","Colleta Makwete","883729256","",""
"Mdeka Health Centre","BT240900","Level 2 (Health Centers and non-CEmONC Hospitals)","Non-EmONC","Yes","TA Chigaru","Blantyre","Southern","Malawi","-15.4681159","34.9427356","Mdeka","991123412","",""
"Mitsidi Health Centre","BT240722","Level 2 (Health Centers and non-CEmONC Hospitals)","Non-EmONC","No","TA Kuntaja","Blantyre","Southern","Malawi","-15.7773128","34.9687355","Eluby Khalani","884050038","",""
"Mlambe Mission Hospital","BT2915","Level 3 (CEmONC Facilities)","CEmONC","Yes","TA Kapeni","Blantyre","Southern","Malawi","-15.6435163","35.0174856","Sr Manja","997935734","997295417",""
"Mpemba Community Hospital","BT2916","Level 2 (Health Centers and non-CEmONC Hospitals)","CEmONC","No","TA Somba","Blantyre","Southern","Malawi","-15.8750266","34.9564199","Owah Kapito","996665536","880969699",""
"Mpingo Health Centre","BT2996","Level 2 (Health Centers and non-CEmONC Hospitals)","Non-EmONC","No","TA Somba","Blantyre","Southern","Malawi","-15.8818533","34.9134267","Emmanuel Chitsamba","888519040","",""
"Namikoko Health Centre","BT2917","Level 2 (Health Centers and non-CEmONC Hospitals)","Non-EmONC","No","TA Lundu","Blantyre","Southern","Malawi","-15.4867797","35.0736572","Giftlupia","998827047","881337475",""
"Nancholi Community Hospital","BT241884","Level 2 (Health Centers and non-CEmONC Hospitals)","Non-EmONC","No","TA Somba","Blantyre","Southern","Malawi","-15.8273129","34.9693307","Alice Kankhuni","881325261","",""
"Ndirande Community Hospital","BT241158","Level 2 (Health Centers and non-CEmONC Hospitals)","BEmONC","No","TA Kapeni","Blantyre","Southern","Malawi","-15.7781925","35.0395648","Gloria Mdachi","995736823","884817993",""
"Ntonda Dispensary","BT241520","Level 1 (Clinics, Dispensaries, Health Posts)","Non-EmONC","No","TA Somba","Blantyre","Southern","Malawi","-15.84602","34.9899467","Charity Kutsanda","996651081","",""
"Pensulo Health Centre","BT241260","Level 2 (Health Centers and non-CEmONC Hospitals)","BEmONC","No","TA Kuntaja","Blantyre","Southern","Malawi","-15.8077481","34.9570384","Chikhulupiriro Namaleu","884453399","",""
"Queen Elizabeth Central Hospital","BT241293","Level 4 (Central Hospitals)","CEmONC","Yes","TA Kapeni","Blantyre","Southern","Malawi","-15.803376","35.0196917","Patrick Kamalo","881738535","",""
"Soche Maternity Health Centre","BT241336","Level 2 (Health Centers and non-CEmONC Hospitals)","BEmONC","No","TA Somba","Blantyre","Southern","Malawi","-15.8567874","35.0352025","Annipher Mtenje","996929818","889501892",""
"South Lunzu Community Hospital","BT2925","Level 3 (CEmONC Facilities)","CEmONC","No","TA Machinjiri","Blantyre","Southern","Malawi","-15.7267427","35.0546967","South Lunzu","884642157","",""
"St Vincent Mission Hospital","BT2979","Level 2 (Health Centers and non-CEmONC Hospitals)","BEmONC","Yes","TA Somba","Blantyre","Southern","Malawi","-15.9140736","34.9501774","St Vincent","882945884","882859467","881376663"
"Zingwangwa Community Hospital","BT241504","Level 2 (Health Centers and non-CEmONC Hospitals)","BEmONC","No","TA Kapeni","Blantyre","Southern","Malawi","-15.8213954","35.0118632","Trinity Kaliwamba","881538485","",""
"Kukalanga Health Centre","DE030228","Level 2 (Health Centers and non-CEmONC Hospitals)","BEmONC","No","TA Chimwala","Machinga","Southern","Malawi","-11.699486","33.5870361","Alinafe Magaso","881234567","",""
"Assalam Health Centre","2539","Level 2 (Health Centers and non-CEmONC Hospitals)","CEmONC","Yes","TA Chimwala","Mangochi","Southern","Malawi","-14.5455815","35.1925352","Omar Daud","881740588","883893762",""
"Billy Riordan Mission Hospital","2567","Level 2 (Health Centers and non-CEmONC Hospitals)","BEmONC","No","TA Namkumba","Mangochi","Southern","Malawi","-14.0320033","34.840615","Tendai Mussa","880597305","","992814442"
"Cape Maclear Dispensary","2594","Level 1 (Clinics, Dispensaries, Health Posts)","BEmONC","No","TA Namkumba","Mangochi","Southern","Malawi","-14.0260133","34.851695","Jervis Nyambalo","994256025","","997793439"
"Chikole Health Centre","2501","Level 2 (Health Centers and non-CEmONC Hospitals)","Non-EmONC","Yes","TA Chowe","Mangochi","Southern","Malawi","-14.4220498","35.3843534","Caroline Mtambalika","996823408","991770389",""
"Chilipa Health Centre","2502","Level 2 (Health Centers and non-CEmONC Hospitals)","Non-EmONC","No","TA Chilipa","Mangochi","Southern","Malawi","-14.7026033","34.9731267","Charles Kumwenda","991950104","999417933","881502286"
"Chilonga Health Centre","2541","Level 2 (Health Centers and non-CEmONC Hospitals)","BEmONC","No","TA Namkumba","Mangochi","Southern","Malawi","-14.4671608","34.8711452","Rafiq Kassim","993726699","",""
"Chiponde Health Centre","2532","Level 1 (Clinics, Dispensaries, Health Posts)","BEmONC","No","STA Chiponde","Mangochi","Southern","Malawi","-14.3735749","35.6019938","Faithkautsi","992390002","888356101",""
"Chiumbangame Health Centre","2503","Level 1 (Clinics, Dispensaries, Health Posts)","Non-EmONC","No","TA Jalasi","Mangochi","Southern","Malawi","-14.3194564","35.5557301","Hastingschunga","888973416","995373416",""
"Chiunda Health Centre","2533","Level 1 (Clinics, Dispensaries, Health Posts)","Non-EmONC","No","TA Chiunda","Mangochi","Southern","Malawi","-14.7776715","35.4390643","Hopson Japson","888015147","990624257",""
"Iba Health Centre","2534","Level 2 (Health Centers and non-CEmONC Hospitals)","Non-EmONC","No","TA Jalasi","Mangochi","Southern","Malawi","-14.3071711","35.3970931","Elias Kumwenda","997449434","884535894",""
"Jalasi Health Centre","2504","Level 2 (Health Centers and non-CEmONC Hospitals)","BEmONC","No","TA Jalasi","Mangochi","Southern","Malawi","-14.3628727","35.4426767","Blessings Chigule","991929290","884707220","998388939"
"Kadango Health Centre","2535","Level 2 (Health Centers and non-CEmONC Hospitals)","BEmONC","No","TA Namabvi","Mangochi","Southern","Malawi","-14.0621867","35.1863117","Simon Namagowa","880001131","993099201","888897775"
"Kapire Health Centre","2505","Level 1 (Clinics, Dispensaries, Health Posts)","BEmONC","Yes","TA Chilipa","Mangochi","Southern","Malawi","-14.785935","34.9994745","Angella Mzunga","997749114","",""
"Katema Health Centre","2506","Level 1 (Clinics, Dispensaries, Health Posts)","BEmONC","Yes","TA Mponda","Mangochi","Southern","Malawi","-14.5257522","35.0372948","Stellabanda","882456864","",""
"Katuli Health Centre","2507","Level 2 (Health Centers and non-CEmONC Hospitals)","Non-EmONC","No","TA Katuli","Mangochi","Southern","Malawi","-14.1797487","35.4447417","Kingsley Selemani","993409191","890400011","884845457"
"Koche Community Hospital","2508","Level 3 (CEmONC Facilities)","BEmONC","No","STA Mambo","Mangochi","Southern","Malawi","-14.3337124","35.1432668","Suzen Jera","888650373","982062640",""
"Kukalanga Health Centre","2509","Level 2 (Health Centers and non-CEmONC Hospitals)","BEmONC","No","TA Chimwala","Mangochi","Southern","Malawi","-14.6374084","35.1803552","Jenalamobe","991031559","","998298414"
"Lugola Health Centre","2510","Level 2 (Health Centers and non-CEmONC Hospitals)","BEmONC","No","TA Chilawe","Mangochi","Southern","Malawi","-13.9614286","35.1428359","Montfort Macheso","888647415","998191695","884123432"
"Lulanga Health Centre","2511","Level 2 (Health Centers and non-CEmONC Hospitals)","BEmONC","No","TA Lulanga","Mangochi","Southern","Malawi","-13.6871091","34.9170946","Johnkaliza","880360189","884495541","990061238"
"Lungwena Health Centre","2512","Level 2 (Health Centers and non-CEmONC Hospitals)","BEmONC","No","TA Namabvi","Mangochi","Southern","Malawi","-14.2450194","35.2480024","Selina Peter","884432357","",""
"Luwalika Health Centre","2513","Level 2 (Health Centers and non-CEmONC Hospitals)","Non-EmONC","Yes","TA Katuli","Mangochi","Southern","Malawi","-14.2379355","35.4695482","Ndaona Paul Chirombo","881299397","999735028",""
"Maganga Dispensary","2582","Level 1 (Clinics, Dispensaries, Health Posts)","BEmONC","Yes","TA Hamisi Makanjira","Mangochi","Southern","Malawi","-13.6649301","34.8583049","Tadala Matumula","998332363","886267242","885244430"
"Makanjira Health Centre","2514","Level 2 (Health Centers and non-CEmONC Hospitals)","BEmONC","Yes","TA Makanjira","Mangochi","Southern","Malawi","-13.7152829","35.0469667","Asnet Chikwete","884480888","997912072","981631240"
"Malembo Health Centre","2515","Level 2 (Health Centers and non-CEmONC Hospitals)","BEmONC","No","TA Namkumba","Mangochi","Southern","Malawi","-14.237795","34.8316467","Fostinokabandana","991044460","999984628","982578060"
"Maleta Dispensary","2550","Level 1 (Clinics, Dispensaries, Health Posts)","BEmONC","No","TA Katuli","Mangochi","Southern","Malawi","-13.9296483","35.263575","Dugalas Benard","882101213","882101213",""
"Malombe Health Centre","2536","Level 2 (Health Centers and non-CEmONC Hospitals)","Non-EmONC","No","TA Chowe","Mangochi","Southern","Malawi","-14.6304979","35.349086","Henry Chimtengo","881825990","",""
"Malukula Health Centre","2542","Level 1 (Clinics, Dispensaries, Health Posts)","Non-EmONC","No","TA Chowe","Mangochi","Southern","Malawi","-14.4436017","35.3555717","Vincent Makoza","998784855","884658660",""
"Mamakhadija Health Centre","2564","Level 2 (Health Centers and non-CEmONC Hospitals)","Non-EmONC","No","TA Jalasi","Mangochi","Southern","Malawi","-14.37077","35.494085","Hawa Mkwanda","884011811","995736184","881606032"
"Mangochi District Hospital","2517","Level 2 (Health Centers and non-CEmONC Hospitals)","BEmONC","Yes","TA Mponda","Mangochi","Southern","Malawi","-14.4819318","35.2647579","Victor Kumfunda","993097461","",""
"Mase Health Centre","2518","Level 2 (Health Centers and non-CEmONC Hospitals)","Non-EmONC","No","TA Chowe","Mangochi","Southern","Malawi","-14.6358596","35.3437106","Stonard Kadewere Banda","880815171","982494502",""
"Mbalama Health Centre","2556","Level 2 (Health Centers and non-CEmONC Hospitals)","CEmONC","Yes","TA Bwananyambi","Mangochi","Southern","Malawi","-14.714475","35.4984583","Kereen Mtantho","885558687","991432284",""
"Mehboob Community Hospital","2586","Level 2 (Health Centers and non-CEmONC Hospitals)","CEmONC","No","STA Mambo","Mangochi","Southern","Malawi","-14.3645827","35.1671142","Christer Chilambe","881338042","998678382",""
"Mkucingajwambone Health Centre","2543","Level 2 (Health Centers and non-CEmONC Hospitals)","BEmONC","No","TA Chowe","Mangochi","Southern","Malawi","-14.5301402","35.3592531","Joseph Mofolo","987919433","880477411","884306376"
"Mkumba Health Centre","2519","Level 2 (Health Centers and non-CEmONC Hospitals)","BEmONC","No","TA Bwananyambi","Mangochi","Southern","Malawi","-14.5945907","35.5252514","Misonzi Harawa","888975042","993297333","993765292"
"Monkeybay Community Hospital","2520","Level 2 (Health Centers and non-CEmONC Hospitals)","CEmONC","Yes","TA Namkumba","Mangochi","Southern","Malawi","-14.0847823","34.9109517","Thokozani Jizale","888400321","997107580","881763902"
"Mpondasi Health Centre","2521","Level 2 (Health Centers and non-CEmONC Hospitals)","BEmONC","No","TA Mponda","Mangochi","Southern","Malawi","-14.4535122","35.2435831","Naomi Thipiwa","881293516","997757175",""
"Msaka Dispensary","2599","Level 1 (Clinics, Dispensaries, Health Posts)","BEmONC","No","STA Kapichi","Mangochi","Southern","Malawi","-14.0793604","34.8521841","Pilirani Nausa","993340681","888737244",""
"Mtimabi Health Centre","2537","Level 2 (Health Centers and non-CEmONC Hospitals)","BEmONC","Yes","TA Chimwala","Mangochi","Southern","Malawi","-14.6110156","35.0824882","Lazarus Chinyama Incharge","885838211","995924974","881665939"
"Mulibwanji Community Hospital","2531","Level 1 (Clinics, Dispensaries, Health Posts)","BEmONC","No","TA Bwananyambi","Mangochi","Southern","Malawi","-14.5114822","35.5884353","Wyson Gowelo","888355494","994941476",""
"Namalaka Health Centre","2522","Level 2 (Health Centers and non-CEmONC Hospitals)","BEmONC","No","TA Namabvi","Mangochi","Southern","Malawi","-14.123799","35.1937127","Lonnie Kapalamula","996091554","",""
"Namkumba Health Centre","2527","Level 2 (Health Centers and non-CEmONC Hospitals)","BEmONC","No","TA Namkumba","Mangochi","Southern","Malawi","-14.3655795","34.8236329","Fadsonmakuta","995136097","881746891","992884118"
"Namwera Health Centre","2523","Level 2 (Health Centers and non-CEmONC Hospitals)","BEmONC","No","TA Jalasi","Mangochi","Southern","Malawi","-14.3635133","35.5024767","Emmanuel Sayanjana","881251228","997084513","995729920"
"Nancholi Dispensary","2524","Level 1 (Clinics, Dispensaries, Health Posts)","Non-EmONC","No","TA Bwananyambi","Mangochi","Southern","Malawi","-14.4783293","35.5867861","Allena Chalusa","991686209","881522192","894334411"
"Nangalamu Health Centre","2525","Level 2 (Health Centers and non-CEmONC Hospitals)","BEmONC","No","TA Bwananyambi","Mangochi","Southern","Malawi","-14.4808888","35.6728684","Geofrey Makawa","991481079","881921459",""
"Nankhwali Health Centre","2526","Level 2 (Health Centers and non-CEmONC Hospitals)","CEmONC","No","STA Kapichi","Mangochi","Southern","Malawi","-14.1355006","34.8447375","Susanndlovu","997594374","888258041","996309344"
"Ngapani Health Centre","2540","Level 2 (Health Centers and non-CEmONC Hospitals)","BEmONC","No","TA Katuli","Mangochi","Southern","Malawi","-14.0310389","35.337462","Catherine Mpofu","888988766","888458126","888168569"
"Njereza Dispensary","2574","Level 1 (Clinics, Dispensaries, Health Posts)","Non-EmONC","No","STA Mambo","Mangochi","Southern","Malawi","-14.3392233","35.0315813","Chen Chai","888839842","999806454","884483583"
"Nkope Health Centre","2528","Level 2 (Health Centers and non-CEmONC Hospitals)","Non-EmONC","Yes","TA Namkumba","Mangochi","Southern","Malawi","-14.2045117","35.033525","Peter Moffat","888377020","994741748",""
"Phirilongwe Health Centre","2529","Level 2 (Health Centers and non-CEmONC Hospitals)","BEmONC","No","TA Ntonda","Mangochi","Southern","Malawi","-14.5881765","34.8982132","Lloyd Mwale","994772448","884481435","881507966"
"Sinyala Dispensary","2538","Level 1 (Clinics, Dispensaries, Health Posts)","BEmONC","No","TA Bwananyambi","Mangochi","Southern","Malawi","-14.5835917","35.5775","Boniface Nkosi","881721386","991128909","881721386"
"Somba Health Centre","2579","Level 2 (Health Centers and non-CEmONC Hospitals)","CEmONC","No","TA Bwananyambi","Mangochi","Southern","Malawi","-14.6467959","35.5382543","Bashir Wassie","997619719","887880205","990012439"
"Sr Martha Health Centre","2530","Level 2 (Health Centers and non-CEmONC Hospitals)","Non-EmONC","No","TA Jalasi","Mangochi","Southern","Malawi","-14.3852359","35.5356207","Cashell Chipondeponde","997339300","888982650","884237218"
"St Martins Mission Hospital","2516","Level 3 (CEmONC Facilities)","CEmONC","Yes","STA Makumba","Mangochi","Southern","Malawi","-14.3474484","35.2936813","Hope Chikwandali","885244455","882131863",""
"St Mary's Community Hospital","2593","Level 2 (Health Centers and non-CEmONC Hospitals)","BEmONC","No","TA Chimwala","Mangochi","Southern","Malawi","-14.5424517","35.1821083","Innocent Kalukuta","997127181","",""
"Amalika Dispensary","3126","Level 1 (Clinics, Dispensaries, Health Posts)","Non-EmONC","No","TA Bvumbwe","Thyolo","Southern","Malawi","-15.992237","35.0316716","Christopher Nyadani","881587609","995445147",""
"Bvumbwe Health Centre","3102","Level 2 (Health Centers and non-CEmONC Hospitals)","BEmONC","Yes","TA Bvumbwe","Thyolo","Southern","Malawi","-15.9286083","35.0777583","Denis Filipo","882383096","",""
"Changata Health Centre","3103","Level 2 (Health Centers and non-CEmONC Hospitals)","Non-EmONC","No","TA Changata","Thyolo","Southern","Malawi","-16.2325695","35.1475641","Steve Manyozo","881620206","992244173",""
"Chilengo Dispensary","CH310205","Level 1 (Clinics, Dispensaries, Health Posts)","BEmONC","No","TA Mphuka","Thyolo","Southern","Malawi","-16.1358928","35.015817","John Mngwira","885288059","",""
"Chimaliro Health Centre","3104","Level 2 (Health Centers and non-CEmONC Hospitals)","Non-EmONC","No","TA Chimaliro","Thyolo","Southern","Malawi","-15.9770331","35.1815883","Rosina Munyenyembe","881028395","",""
"Chimvu Health Centre","3105","Level 2 (Health Centers and non-CEmONC Hospitals)","BEmONC","Yes","TA Boidi","Thyolo","Southern","Malawi","-15.9418851","35.1228315","Naomi Wochi","999578443","",""
"Chingazi Rural Hospital","3106","Level 2 (Health Centers and non-CEmONC Hospitals)","CEmONC","No","TA Chimaliro","Thyolo","Southern","Malawi","-15.9182201","35.2055775","Zavuta Mofolo","999384329","",""
"Chinthebe Dispensary","3127","Level 1 (Clinics, Dispensaries, Health Posts)","BEmONC","No","TA Ngomano","Thyolo","Southern","Malawi","-16.0022334","35.0129849","Joseph Chanunkha","991211856","992910874","888607887"
"Chipho Health Centre","3124","Level 2 (Health Centers and non-CEmONC Hospitals)","BEmONC","No","TA Nsabwe","Thyolo","Southern","Malawi","-16.2618439","35.2961807","Posiano Ngozo","995025047","",""
"Chisoka Health Centre","CSKA 3127","Level 2 (Health Centers and non-CEmONC Hospitals)","CEmONC","No","TA Chimaliro","Thyolo","Southern","Malawi","-15.9416133","35.208955","Gloria Gomani","882464909","",""
"Chisoka Health Centre","CSKA3127","Level 2 (Health Centers and non-CEmONC Hospitals)","CEmONC","No","TA Chimaliro","Thyolo","Southern","Malawi","-15.9415069","35.2089267","Gloria Gomani","882464909","",""
"Kasembeleka Dispensary","160","Level 1 (Clinics, Dispensaries, Health Posts)","Non-EmONC","No","TA Khwethemule","Thyolo","Southern","Malawi","-16.1192866","35.0983131","Eric Chimwaza","888312855","",""
"Khonjeni Health Centre","3109","Level 2 (Health Centers and non-CEmONC Hospitals)","BEmONC","No","TA Kapichi","Thyolo","Southern","Malawi","-16.0968059","35.2715062","Chimwemwe Naluso","888592926","993136724",""
"Khwethemule Health Post","0","Level 2 (Health Centers and non-CEmONC Hospitals)","BEmONC","No","TA Khwethemule","Thyolo","Southern","Malawi","-16.2061648","35.109801","Carlorine Kamoto","881692230","998266615",""
"Lomola Health Centre","311915","Level 2 (Health Centers and non-CEmONC Hospitals)","BEmONC","Yes","TA Ndalama","Thyolo","Southern","Malawi","-16.0247101","35.2896818","Marvelous Chingwanda","999475628","",""
"Mafisi Dispensary","3132","Level 1 (Clinics, Dispensaries, Health Posts)","CEmONC","No","TA Kapichi","Thyolo","Southern","Malawi","-16.0935144","35.2420058","John Nyezelera","881756544","",""
"Makapwa Health Centre","3110","Level 2 (Health Centers and non-CEmONC Hospitals)","CEmONC","No","TA Kapichi","Thyolo","Southern","Malawi","-16.1818213","35.2797395","Victor Zembesani","997195122","884014308",""
"Makungwa Health Centre","3101","Level 3 (CEmONC Facilities)","BEmONC","No","TA Bvumbwe","Thyolo","Southern","Malawi","-15.939975","35.0266483","Moses Chandamale","884363408","",""
"Malamulo Mission Hospital","3111","Level 3 (CEmONC Facilities)","CEmONC","Yes","TA Khwethemule","Thyolo","Southern","Malawi","-16.1707105","35.1105524","Ferridy Chipapi","888821812","",""
"Mangunda Health Centre","3112","Level 2 (Health Centers and non-CEmONC Hospitals)","Non-EmONC","No","TA Nanseta","Thyolo","Southern","Malawi","-16.0288255","35.2615215","Aisha Selemani","888585005","",""
"Mapanga Health Centre","3125","Level 2 (Health Centers and non-CEmONC Hospitals)","BEmONC","No","TA Mbawera","Thyolo","Southern","Malawi","-16.2759825","35.1967701","Everyone Khupawe","899631130","",""
"Mbalanguzi Dispensary","3113","Level 1 (Clinics, Dispensaries, Health Posts)","BEmONC","No","TA Mbawera","Thyolo","Southern","Malawi","-16.250923","35.1665436","Mary Mpaso","987037118","",""
"Mianga Health Centre","3141","Level 2 (Health Centers and non-CEmONC Hospitals)","BEmONC","No","STA Mlenga","Thyolo","Southern","Malawi","-16.0987945","35.0755852","Richard Zidana","993775171","",""
"Mikolongwe Health Centre","3114","Level 2 (Health Centers and non-CEmONC Hospitals)","Non-EmONC","No","TA Chimaliro","Thyolo","Southern","Malawi","-15.9014693","35.183701","Sellina Kamankodola","999102581","",""
"Mitengo Health Centre","3117","Level 2 (Health Centers and non-CEmONC Hospitals)","CEmONC","Yes","TA Kapichi","Thyolo","Southern","Malawi","-16.111035","35.24543","Mitengo","884955565","","888495556"
"Njale Health Centre","312133","Level 2 (Health Centers and non-CEmONC Hospitals)","BEmONC","No","STA Mlenga","Thyolo","Southern","Malawi","-16.099107","35.0679117","Moreen Zelina Chalusa","990428386","889892991",""
"Nkhataombere Dispensary","3115","Level 1 (Clinics, Dispensaries, Health Posts)","BEmONC","Yes","TA Nssbwe","Thyolo","Southern","Malawi","-16.324045","35.26382333333333","Esther Savala","880766897","991504603",""
"Nsabwe Dispensary","3116","Level 1 (Clinics, Dispensaries, Health Posts)","BEmONC","No","TA Nsabwe","Thyolo","Southern","Malawi","-16.3399701","35.2010961","Esther Zawanda","894671364","884579519",""
"Ntambanyama Health Centre","3108","Level 2 (Health Centers and non-CEmONC Hospitals)","Non-EmONC","No","TA Khwethemule","Thyolo","Southern","Malawi","-16.1267663","35.0844336","Elisha Edward","884183682","",""
"Sandama Health Post","311316","Level 1 (Clinics, Dispensaries, Health Posts)","Non-EmONC","No","TA Mbawera","Thyolo","Southern","Malawi","-16.2051041","35.295507","Sandama Health Post","985339013","",""
"Satemwa Health Centre","3144","Level 2 (Health Centers and non-CEmONC Hospitals)","BEmONC","No","STA Mlenga","Thyolo","Southern","Malawi","-16.077119","35.0762864","Satemwa","994144460","",""
"St Martin Molere Health Centre","3118","Level 2 (Health Centers and non-CEmONC Hospitals)","Non-EmONC","No","TA Changata","Thyolo","Southern","Malawi","-16.2176005","35.1355992","Maria Alick","996455009","","885005671"
"Thekerani Rural Hospital","3119","Level 2 (Health Centers and non-CEmONC Hospitals)","BEmONC","No","TA Nsabwe","Thyolo","Southern","Malawi","-16.3214576","35.2072577","James Thuthuwa","888740233","",""
"Thomas Health Centre","3120","Level 2 (Health Centers and non-CEmONC Hospitals)","BEmONC","Yes","TA Mpenda","Thyolo","Southern","Malawi","-16.0298364","34.9789239","Patrick Malemba","997636140","885129314",""
"Thowera Health Centre","TH311916","Level 2 (Health Centers and non-CEmONC Hospitals)","Non-EmONC","No","TA Ndalama","Thyolo","Southern","Malawi","-16.032032","35.3040387","Eluby Makhuda","884961261","",""
"Zoa Health Centre","3122","Level 2 (Health Centers and non-CEmONC Hospitals)","Non-EmONC","No","TA Mbawera","Thyolo","Southern","Malawi","-16.2376102","35.1997302","Monica Moyowatha","998160636","889702257",""
"Bimbi Health Centre","2701","Level 2 (Health Centers and non-CEmONC Hospitals)","BEmONC","Yes","TA Kuntumanje","Zomba","Southern","Malawi","-15.3091643","35.4795231","Dalitso Napawa","884574787","991362411","990208520"
"Chamba Health Centre","2702","Level 2 (Health Centers and non-CEmONC Hospitals)","BEmONC","No","TA Mwambo","Zomba","Southern","Malawi","-15.4656117","35.5168533","Frank Chikhomo","881254674","989274304",""
"Chanco Clinic","2760","Level 1 (Clinics, Dispensaries, Health Posts)","Non-EmONC","No","TA Chikowi","Zomba","Southern","Malawi","-15.3853783","35.3324783","Shaime Saiwale","993058150","",""
"Changalume Barracks Health Centre","2740","Level 2 (Health Centers and non-CEmONC Hospitals)","Non-EmONC","No","TA Namadidi","Zomba","Southern","Malawi","-15.3893149","35.2117242","Mphatso Lungu","999920428","",""
"Chilipa Health Centre","2703","Level 2 (Health Centers and non-CEmONC Hospitals)","BEmONC","No","TA Nkapita","Zomba","Southern","Malawi","-15.3244602","35.1168639","Omex Magalasi","990753399","",""
"Chingale Health Centre","2704","Level 2 (Health Centers and non-CEmONC Hospitals)","BEmONC","No","TA Namadidi","Zomba","Southern","Malawi","-15.3967362","35.1806802","Steve Balakasi","993287304","888049592",""
"Chipini Health Centre","2705","Level 2 (Health Centers and non-CEmONC Hospitals)","BEmONC","Yes","TA Namadidi","Zomba","Southern","Malawi","-15.3893273","35.0946353","Emmanuel Chiomba","994598671","",""
"Chisi Health Centre","2737","Level 2 (Health Centers and non-CEmONC Hospitals)","BEmONC","No","TA Mkumbira","Zomba","Southern","Malawi","-15.3256893","35.60509","Chisi Health Centre","999838093","884405814",""
"Chuluchosema Health Centre","2774","Level 2 (Health Centers and non-CEmONC Hospitals)","Non-EmONC","No","TA Chikowi","Zomba","Southern","Malawi","-15.4426191","35.3664597","Ulemu Uzale","995646063","",""
"City Health Centre","2723","Level 2 (Health Centers and non-CEmONC Hospitals)","Non-EmONC","No","TA Chikowi","Zomba","Southern","Malawi","-15.3906436","35.3241701","Regina Bwanali","888555110","999650621","992953037"
"Cobbe Barracks Health Centre","2729","Level 2 (Health Centers and non-CEmONC Hospitals)","Non-EmONC","No","TA Mlumbe","Zomba","Southern","Malawi","-15.3905393","35.3054261","Dr Emma Selema","881431809","",""
"Domasi Rural Hospital","2706","Level 2 (Health Centers and non-CEmONC Hospitals)","BEmONC","No","TA Malemia","Zomba","Southern","Malawi","-15.2808798","35.3993784","Benjamin Aluba","885400540","999415114",""
"H Parker Health Centre","2707","Level 2 (Health Centers and non-CEmONC Hospitals)","BEmONC","No","TA Malemia","Zomba","Southern","Malawi","-15.2990802","35.3608918","Mphatso Ndeule","888602412","881114793","883553905"
"Khanda Health Centre","2777","Level 2 (Health Centers and non-CEmONC Hospitals)","BEmONC","No","TA Nkagula","Zomba","Southern","Malawi","-15.3579933","35.51205","Francis Msukwa","882091555","",""
"Lambulira Health Centre","2708","Level 2 (Health Centers and non-CEmONC Hospitals)","BEmONC","No","TA Chikowi","Zomba","Southern","Malawi","-15.4842909","35.3371998","Debora Kazembe","881499677","992091660","888951481"
"Likangala Health Centre","2709","Level 2 (Health Centers and non-CEmONC Hospitals)","BEmONC","No","TA Lamusi","Zomba","Southern","Malawi","-15.4279884","35.5443733","James Ridi","881175547","",""
"Machinjiri Health Centre","2733","Level 2 (Health Centers and non-CEmONC Hospitals)","BEmONC","No","TA Malemia","Zomba","Southern","Malawi","-15.2371503","35.4183067","Chisomo Longwe","992010073","997219615",""
"Maera Health Centre","2739","Level 2 (Health Centers and non-CEmONC Hospitals)","BEmONC","No","TA Mlumbe","Zomba","Southern","Malawi","-15.5097816","35.1315986","Johnasmagalasi","994168892","",""
"Magomero Health Centre","2710","Level 2 (Health Centers and non-CEmONC Hospitals)","BEmONC","No","STA Ntholowa","Zomba","Southern","Malawi","-15.5615349","35.2610608","Sister Violet Matiki","886651193","",""
"Makina Health Centre","2775","Level 2 (Health Centers and non-CEmONC Hospitals)","Non-EmONC","No","STA Lamusi","Zomba","Southern","Malawi","-15.5165807","35.5987366","Wisdom Nsakambewa","884816846","995591819",""
"Makwapala Health Centre","2711","Level 2 (Health Centers and non-CEmONC Hospitals)","BEmONC","No","TA Nkagula","Zomba","Southern","Malawi","-15.3694063","35.4506469","Golden Kachimanga","884410643","",""
"Masm Med Clinic","2768","Level 1 (Clinics, Dispensaries, Health Posts)","BEmONC","No","TA Malemia","Zomba","Southern","Malawi","-15.3785123","35.3315052","Yamikani Linyama Liphuka","995471460","881624618",""
"Matawale Health Centre","2724","Level 2 (Health Centers and non-CEmONC Hospitals)","BEmONC","No","TA Mwambo","Zomba","Southern","Malawi","-15.3905983","35.3595917","Dlamin Nkosi","884980247","",""
"Matiya Health Centre","2712","Level 2 (Health Centers and non-CEmONC Hospitals)","BEmONC","Yes","STA Lamusi","Zomba","Southern","Malawi","-15.530293","35.5506208","Joana Mwalamba","884282347","993841894","994459626"
"Mayaka Health Centre","2713","Level 2 (Health Centers and non-CEmONC Hospitals)","BEmONC","Yes","STA Mwembere","Zomba","Southern","Malawi","-15.5736439","35.3724936","Sister Mary Gonani","884098090","",""
"Mmambo Health Centre","2731","Level 2 (Health Centers and non-CEmONC Hospitals)","BEmONC","No","TA Nkapita","Zomba","Southern","Malawi","-15.2626842","35.1596843","Alinafe Nathan Katondo","993886943","886679292",""
"Mwandama Health Centre","2738","Level 2 (Health Centers and non-CEmONC Hospitals)","BEmONC","Yes","TA Mlumbe","Zomba","Southern","Malawi","-15.4980884","35.1881162","Alex Chilewani","991058295","",""
"Naisi Health Centre","2732","Level 2 (Health Centers and non-CEmONC Hospitals)","BEmONC","No","TA Malemia","Zomba","Southern","Malawi","-15.3577692","35.3850925","Dorothy Kuleti","995601896","884992900",""
"Namadidi Health Centre","3736","Level 1 (Clinics, Dispensaries, Health Posts)","BEmONC","No","STA Mlumbe","Zomba","Southern","Malawi","-15.4096351","35.2487997","Chinsinsi Mndalira","999614289","888914289",""
"Namasalima Health Centre","2714","Level 2 (Health Centers and non-CEmONC Hospitals)","BEmONC","No","TA Kuntumanje","Zomba","Southern","Malawi","-15.2313769","35.4887842","Robert Kampota","884666144","997537160","986999406"
"Namikango Health Centre","2715","Level 2 (Health Centers and non-CEmONC Hospitals)","BEmONC","No","TA Mlumbe","Zomba","Southern","Malawi","-15.477289","35.2407195","Rose Monjeza","881571361","",""
"Nasawa Health Centre","2725","Level 2 (Health Centers and non-CEmONC Hospitals)","BEmONC","No","STA Ntholowa","Zomba","Southern","Malawi","-15.6023286","35.2594559","Precious Kalulu","881038256","",""
"Ngwelero Health Centre","2716","Level 2 (Health Centers and non-CEmONC Hospitals)","BEmONC","No","TA Ngwelero","Zomba","Southern","Malawi","-15.6663483","35.42741","Gift Malamula","886094444","",""
"Nkasala Health Centre","2717","Level 2 (Health Centers and non-CEmONC Hospitals)","BEmONC","No","TA Nkapita","Zomba","Southern","Malawi","-15.3277172","35.2166504","Innocent Nong'oneza","886538752","",""
"Pirimiti Community Hospital","2718","Level 3 (CEmONC Facilities)","CEmONC","Yes","TA Mwambo","Zomba","Southern","Malawi","-15.4826775","35.4508449","Happy Bruno","884445701","993397599",""
"Police Community Hospital","2728","Level 2 (Health Centers and non-CEmONC Hospitals)","CEmONC","No","TA Chikowi","Zomba","Southern","Malawi","-15.3911117","35.3268712","Often Mnduwira","995281581","",""
"Sadzi Health Centre","2734","Level 2 (Health Centers and non-CEmONC Hospitals)","Non-EmONC","No","TA Chikowi","Zomba","Southern","Malawi","-15.4086818","35.3194392","Beatrice Basikolo","880625206","991809684",""
"St Lukes Mission Hospital","2719","Level 3 (CEmONC Facilities)","CEmONC","No","TA Malemia","Zomba","Southern","Malawi","-15.2084853","35.3522885","Phonia Kavalo","884645626","","999296633"
"St Robert Health Centre","2776","Level 2 (Health Centers and non-CEmONC Hospitals)","BEmONC","No","TA Mwambo","Zomba","Southern","Malawi","-15.4256042","35.4579931","Loveness Lameck","888117831","",""
"Thondwe Dispensary","2721","Level 1 (Clinics, Dispensaries, Health Posts)","BEmONC","No","STA Mlumbe","Zomba","Southern","Malawi","-15.4848421","35.2369074","Thondwe","882903212","",""
"Zilindo Health Centre","2735","Level 2 (Health Centers and non-CEmONC Hospitals)","Non-EmONC","No","TA Mlumbe","Zomba","Southern","Malawi","-15.3805298","35.3012999","Chimwemwe William","888185098","996111055","888304832"
"Zomba Central Hospital","2722","Level 4 (Central Hospitals)","CEmONC","Yes","TA Chikowi","Zomba","Southern","Malawi","-15.3980617","35.3141817","Saulos Nyirenda","999353377","999881280",""
"Zomba Central Prison Clinic","2730","Level 1 (Clinics, Dispensaries, Health Posts)","Non-EmONC","No","TA Mlumbe","Zomba","Southern","Malawi","-15.3963237","35.3121229","Archangel Chikadza","888532496","994451887","881996485"